[
    {
      "name": "18 Strings Of Luv",
      "time": "5-6 pm",
      "address": "105 King St",
      "description": "Great songs of the 60\u2019s. Beatles,Zombies, Van Morrison, Carole King, Hollies, Motown and a lot more in shimmering 3 part harmonies.",
      "latlng": { "latitude": 42.45009255, "longitude": -76.49686687693625 },
      "isFavorited": false
    },
    {
      "name": "6 Mile Craic",
      "time": "4-5 pm",
      "address": "102 Hancock St",
      "description": "Welcome to Six Mile Craic- a group of musical friends who met playing Irish Trad Music Sessions. Along came the pandemic, sessions and life were shut down, but we found a way for our music to continue. Come on out and hear us for a \u201cGood Craic\u201d! See less Our band name was previously The Piperventilators\u2026and you might know us by that name. With the pandemic, it was time for a change. We wanted a name that more accurately reflected the place we call home. 6 Mile Creek is one of Ithaca\u2019s most beautiful hiking areas. With our play on words, we are now \u201c6 MILE CRAIC\u201d (Craic is a term in the Irish language, meaning \u201cone hellova good time!\u201d) So join us, one and all, for a good time\u2026good music\u2026.good friends\u2026..good craic!",
      "latlng": { "latitude": 42.4484433, "longitude": -76.5010734 },
      "isFavorited": false
    },
    {
      "name": "86ers",
      "time": "5-6 pm",
      "address": "311 Willow Ave",
      "description": "Cowpunk from Ithaca",
      "latlng": { "latitude": 42.44766345, "longitude": -76.50130655327222 },
      "isFavorited": false
    },
    {
      "name": "Acoustic Cow Tippers",
      "time": "1-2 pm",
      "address": "406 E Yates St",
      "description": "Original music and comedic social commentary",
      "latlng": { "latitude": 42.4475135, "longitude": -76.49545720067374 },
      "isFavorited": false
    },
    {
      "name": "Afrobeta",
      "time": "5-6 pm",
      "address": "213 Willow Ave",
      "description": "blending organic and electronic music since 2006",
      "latlng": { "latitude": 42.4467968, "longitude": -76.50060042269573 },
      "isFavorited": false
    },
    {
      "name": "Aftermarket",
      "time": "1-2 pm",
      "address": "522 N Aurora St",
      "description": "Savory covers that you know and love, or don\u2019t know that you love yet: acoustic rock infused with classic R&B and funk.",
      "latlng": { "latitude": 42.4459119, "longitude": -76.4962255 },
      "isFavorited": false
    },
    {
      "name": "Ageless Jazz Band",
      "time": "4-5 pm",
      "address": "1019 N Cayuga St",
      "description": "17-piece jazz big band",
      "latlng": { "latitude": 42.45174035, "longitude": -76.49930869021821 },
      "isFavorited": false
    },
    {
      "name": "Alan Rose",
      "time": "1-2 pm",
      "address": "107 Utica St",
      "description": "The songwriter over the 12-string edge! Performing sans Restless Elements.",
      "latlng": { "latitude": 42.4453405, "longitude": -76.4979945 },
      "isFavorited": false
    },
    {
      "name": "Alex VanTassel",
      "time": "4-5 pm",
      "address": "205 E Falls St",
      "description": "Alex VanTassel\u2019s original songs take inspiration from many music styles, including indie pop, jazz, and alternative rock. A singer/songwriter from Endicott, NY, Alex brings together her voice and keyboard to create and share songs that express her thoughts on society, philosophy, mortality, and the human condition. Her debut album, \u201cRoaches in My Head,\u201d can be found on all major streaming platforms.",
      "latlng": { "latitude": 42.45264605, "longitude": -76.4971300123303 },
      "isFavorited": false
    },
    {
      "name": "all caps no spaces",
      "time": "5-6 pm",
      "address": "515 N Aurora St",
      "description": "Garage jam band! The jam started in 2018 and never stopped. Come watch a bunch of sciency PhD students and post-docs give vent to their bottled up artistic feelings. Side effects may vary.",
      "latlng": {
        "latitude": 42.445660000000004,
        "longitude": -76.49573705875329
      },
      "isFavorited": false
    },
    {
      "name": "All Strung Out",
      "time": "12-1 pm",
      "address": "102 Dey St",
      "description": "Musical Gems of the 20th century, lyric-wise or dance wise. Also, some clever original songs. Country, pop, jazz standards, Irish songs, Rock and roll, folk\u2026Guilty pleasures. Guitars, dobro, flute, hand percussion. Acoustic for Porchfest.",
      "latlng": {
        "latitude": 42.44857111382905,
        "longitude": -76.50098972876997
      },
      "isFavorited": false
    },
    {
      "name": "Ariel Arbisser",
      "time": "1-2 pm",
      "address": "711 N Aurora St",
      "description": "Dramatic pop",
      "latlng": { "latitude": 42.44787615, "longitude": -76.49582687490778 },
      "isFavorited": false
    },
    {
      "name": "Auntie Emo\u2019s Intro to Ukulele",
      "time": "12-1 pm",
      "address": "204 W Yates St",
      "description": "Introduction to playing ukulele for beginners",
      "latlng": { "latitude": 42.44721265, "longitude": -76.50098838119504 },
      "isFavorited": false
    },
    {
      "name": "The Barefoot Ladies",
      "time": "12-1 pm",
      "address": "918 N Aurora St",
      "description": "Three women singers, close three-part harmony; lots of a cappella, some guitar and uke accompaniment.",
      "latlng": { "latitude": 42.4510729, "longitude": -76.4965735 },
      "isFavorited": false
    },
    {
      "name": "Barn Spiders",
      "time": "4-5 pm",
      "address": "408 E Marshall St",
      "description": "awide range of old and new blues, rock, and alt with a slight Neil Young leaning. some originals, and tons of fun.",
      "latlng": { "latitude": 42.4463527, "longitude": -76.4953099 },
      "isFavorited": false
    },
    {
      "name": "Bethany McLyr",
      "time": "2-3 pm",
      "address": "215 Dey St",
      "description": "Quirky and unique try really hard, but don\u2019t come close to describing the musical stylings of Bethany McLyr. Drawing influence from everything from 20s torch songs, punk and contemporary pop, with roots in Celtic and Scandinavian folk, she weaves magic using her trusty ukulele, penny whistle, mandolin and other instruments.",
      "latlng": { "latitude": 42.4501565, "longitude": -76.50188665236895 },
      "isFavorited": false
    },
    {
      "name": "Bo Lipari and Friends",
      "time": "1-2 pm",
      "address": "204 W Yates St",
      "description": "Ukulele performances by Bo Lipari and friends",
      "latlng": { "latitude": 42.44721265, "longitude": -76.50098838119504 },
      "isFavorited": false
    },
    {
      "name": "Bob Roberts Calamity",
      "time": "4-5 pm",
      "address": "818 N Aurora St",
      "description": "90\u2019s Alternative Rock that hits you right in the nostalgic feels. Remember staying up late, long after your parents told you to go to sleep? Head nuzzled close to your boombox with a blank tape prepared to record your favorite jams? BRC creates that live; no commercials.",
      "latlng": { "latitude": 42.449112, "longitude": -76.4964646 },
      "isFavorited": false
    },
    {
      "name": "Bronwen Exter",
      "time": "5-6 pm",
      "address": "608 Utica St",
      "description": "\u201cCOME ALL YE COWGIRLS AND BARFLIES, TRAGIC COMEDIANS AND LAZY POETS, ALL YE DISCIPLES, DEGENERATES, AND DOWAGERS. IF BRONWEN EXTER HASN\u2019T WRITTEN A SONG THAT SPEAKS RIGHT TO YOU YET, IT\u2019S TIME YOU LIVE A LITTLE, DARLIN.\u201d \u2013 Megan Romer/ Grassroots",
      "latlng": { "latitude": 42.4511809, "longitude": -76.49878999725249 },
      "isFavorited": false
    },
    {
      "name": "Charlie Young",
      "time": "12-1 pm",
      "address": "205 E Falls St",
      "description": "Charlie Young, a singer-guitarist with a voice that won\u2019t quit, performs an eclectic selection of pop, folk, rock, swing, western, and country songs.",
      "latlng": { "latitude": 42.45264605, "longitude": -76.4971300123303 },
      "isFavorited": false
    },
    {
      "name": "Chimes of Bayonets",
      "time": "3-4 pm",
      "address": "611 N Tioga St",
      "description": "\u201cChimes of Bayonets has all the goods. Frayed riffs, throbbing basslines and rhythmic bliss.\u201d Formed in 2016 from Ithaca, New York. Sounds like June of 44 meets Shellac.",
      "latlng": {
        "latitude": 42.446913699999996,
        "longitude": -76.49699426415816
      },
      "isFavorited": false
    },
    {
      "name": "Citizen O\u2019Kane",
      "time": "3-4 pm",
      "address": "717 N Aurora St",
      "description": "Citizen O\u2019Kane is a two piece bass/keyboard/drums combo, built on a foundation of rock solid love and soul devotion.",
      "latlng": { "latitude": 42.4481941, "longitude": -76.4958235 },
      "isFavorited": false
    },
    {
      "name": "Cobra Cadaver",
      "time": "4-5 pm",
      "address": "311 Willow Ave",
      "description": "We play heavy rock and roll",
      "latlng": { "latitude": 42.44766345, "longitude": -76.50130655327222 },
      "isFavorited": false
    },
    {
      "name": "Common Railers",
      "time": "5-6 pm",
      "address": "510 N Tioga St",
      "description": "Common Railers is original indie rock and American roots music. A rockin\u2019 four-piece band with guitar, upright and electric bass, drums, sax, flute and accordion.",
      "latlng": { "latitude": 42.4454994, "longitude": -76.4973769 },
      "isFavorited": false
    },
    {
      "name": "Cornell Gamelan Ensemble",
      "time": "2-3 pm",
      "address": "318 Lake Ave",
      "description": "The Cornell Gamelan Ensemble is dedicated to the study and performance of Central Javanese gamelan music. music.cornell.edu/gamelan",
      "latlng": { "latitude": 42.447602950000004, "longitude": -76.50206665 },
      "isFavorited": false
    },
    {
      "name": "Cornell Ukulele Club",
      "time": "4-5 pm",
      "address": "100 Franklin St",
      "description": "The Cornell Ukulele club is a student run club to play the Ukulele and teach others to.",
      "latlng": { "latitude": 42.45092185, "longitude": -76.5011307 },
      "isFavorited": false
    },
    {
      "name": "Cornell University Jazz Ensemble",
      "time": "3-4 pm",
      "address": "1019 N Cayuga St",
      "description": "The Jazz Ensemble is the flagship group of the CU Jazz program. Students perform classic, modern, and contemporary repertoire in a large ensemble format. The group has commissioned works from Jim McNeely, Rufus Reid, and Paul Smoker and has performed with many jazz masters such as the late Dizzy Gillespie, Joe Henderson, Barry Harris, and James Moody. More recent guest artists include Maria Schneider, Joshua Redman, Peter Bernstein, and Wynton Marsalis.",
      "latlng": { "latitude": 42.45174035, "longitude": -76.49930869021821 },
      "isFavorited": false
    },
    {
      "name": "Dad On Arrival",
      "time": "2-3 pm",
      "address": "720 N Aurora St",
      "description": "Fun mix of rock, pop and indie, Seriously casual.",
      "latlng": { "latitude": 42.4482826, "longitude": -76.4963421 },
      "isFavorited": false
    },
    {
      "name": "Dara Anissi",
      "time": "3-4 pm",
      "address": "112 E Falls St",
      "description": "We are a two piece band consisting of oud and percussion playing orginal and traditional Middle Eastern Music.",
      "latlng": {
        "latitude": 42.452914750000005,
        "longitude": -76.49881432572056
      },
      "isFavorited": false
    },
    {
      "name": "Darkwine",
      "time": "5-6 pm",
      "address": "111 Auburn St",
      "description": "Darkwine plays classic acoustic songs and deep cuts from the 60s, 70s, 80s, 90s and beyond, with searing instrumentals and delicious vocal harmonies.",
      "latlng": { "latitude": 42.4478294, "longitude": -76.50043965 },
      "isFavorited": false
    },
    {
      "name": "Dex & friends",
      "time": "3-4 pm",
      "address": "209 Utica St",
      "description": "acoustic rock and pop covers and a few originals",
      "latlng": { "latitude": 42.44669855, "longitude": -76.49801657633418 },
      "isFavorited": false
    },
    {
      "name": "Diana Leigh Quartet",
      "time": "4-5 pm",
      "address": "442 N Aurora St",
      "description": "Diana Leigh and her band of merry musicians play sweet and swinging jazz and blues for your dancing and listening pleasure. With the great Kevin Jones on guitar, Stu Zimny on bass, and Keith Evan Green on drums.",
      "latlng": { "latitude": 42.4445154, "longitude": -76.4961711 },
      "isFavorited": false
    },
    {
      "name": "Dickie Starfish Allstars",
      "time": "5-6 pm",
      "address": "408 Linn St",
      "description": "Pop and Rock covers from the 60s to the present, performed by cool dads.",
      "latlng": { "latitude": 42.4478847, "longitude": -76.49507352566371 },
      "isFavorited": false
    },
    {
      "name": "DJ Evo Evolution",
      "time": "3-4 pm",
      "address": "615 Willow Ave",
      "description": "Your favorite DJ\u2019s Favorite DJ on wheels",
      "latlng": { "latitude": 42.4506549, "longitude": -76.5035092 },
      "isFavorited": false
    },
    {
      "name": "Djug Django",
      "time": "5-6 pm",
      "address": "219 Auburn St",
      "description": "Ithaca\u2019s fave Gypsy/Blues/Latin/Jug/Swing Band",
      "latlng": { "latitude": 42.4493432, "longitude": -76.50051451063524 },
      "isFavorited": false
    },
    {
      "name": "Doolin O\u2019Dey",
      "time": "3-4 pm",
      "address": "102 Hancock St",
      "description": "DOOLIN O\u2019DEY\u2014 an exciting mix of traditional and original Celtic inspired music. Fiddles, Celtic whistles, Uilleann pipes, Hammer Dulcimer, Guitar, Octave Mandolin, and Piano- in a fresh Celtic sound. You\u2019ll be drawn into the magical arrangements of this band that brings all the finesse of fine Chamber Music and the fire of the Celtic Isles to the Finger Lakes. Doolin O\u2019Dey presents music with grace, flair, elegance and foot stompin\u2019 fun. A much sought after band in the Finger Lakes of NY and beyond. Concert Halls\u2026Performing Arts Centers\u2026. Celtic Festivals\u2026.Contra Dances\u2026.Museums\u2026Churches\u2026Community Events\u2026Private Parties\u2026Weddings\u2026Wineries",
      "latlng": { "latitude": 42.4484433, "longitude": -76.5010734 },
      "isFavorited": false
    },
    {
      "name": "Elisa & The YesMen",
      "time": "12-1 pm",
      "address": "719 N Aurora St",
      "description": "Elisa (Sciscioli) Keeler\u2019s powerhouse vocals combined with the YesMen\u2019s funky soul grooves raise the roof with conscious lyrics that lift the spirit and shake the hips. Keeler\u2019s original songs include R&B, jazz, funk, West African and Latin music influences. The band features Travis Knapp, Jamie Yaman, Mark Karlsen, Rusty Keeler & Jon Keefner.",
      "latlng": { "latitude": 42.4483359, "longitude": -76.4959249 },
      "isFavorited": false
    },
    {
      "name": "Eric Campbell",
      "time": "1-2 pm",
      "address": "104 Sears St",
      "description": "Acoustic jazz, blues, pop and rock covers",
      "latlng": {
        "latitude": 42.44279573469388,
        "longitude": -76.49816077551021
      },
      "isFavorited": false
    },
    {
      "name": "Fall Creek Brass Band",
      "time": "5-6 pm",
      "address": "418 N Tioga St",
      "description": "A community favorite, the Fall Creek Brass Band fuses the sound of New Orleans Street music with funk, jazz, and pop. With a mighty crew of trumpets, trombones, saxes, drums, and a big green sousaphone, FCBB\u2019s powerful sound always attracts a crowd and gets everybody\u2019s feet moving!",
      "latlng": { "latitude": 42.4437117, "longitude": -76.49725312307956 },
      "isFavorited": false
    },
    {
      "name": "Fall Crickers Jug Band",
      "time": "1-2 pm",
      "address": "219 Auburn St",
      "description": "Perennial faves featuring originals, Western swing, blues and Jug Band nuggets from Colorblind James and Scott Regan",
      "latlng": { "latitude": 42.4493432, "longitude": -76.50051451063524 },
      "isFavorited": false
    },
    {
      "name": "Firepit Trio",
      "time": "3-4 pm",
      "address": "206 E Lewis St",
      "description": "A brand new pop/folk trio with a live-looping twist.",
      "latlng": { "latitude": 42.4497059, "longitude": -76.49799957197733 },
      "isFavorited": false
    },
    {
      "name": "Fish OUT-ISH",
      "time": "3-4 pm",
      "address": "312 Farm St",
      "description": "We cover professional wrestling themes from the 80s-current day as well as an array of classic TV theme songs, we wear costumes of wrestlers, and it\u2019s a good time for all ages.",
      "latlng": { "latitude": 42.4452229, "longitude": -76.4950132 },
      "isFavorited": false
    },
    {
      "name": "Florencia Ulloa",
      "time": "2-3 pm",
      "address": "316 Hancock St",
      "description": "Mexican born and Ithaca based singer songwriter, singing originals including songs from her new album, izzysplaylist",
      "latlng": {
        "latitude": 42.447161449999996,
        "longitude": -76.50387013238527
      },
      "isFavorited": false
    },
    {
      "name": "Foggy Blues Band",
      "time": "2-3 pm",
      "address": "517 Willow Ave",
      "description": "Blues improv group. Electric. Guitar, violin, bass, harmonica, drums.",
      "latlng": { "latitude": 42.4496373, "longitude": -76.5029219138811 },
      "isFavorited": false
    },
    {
      "name": "Freese Road Bandits",
      "time": "3-4 pm",
      "address": "316 Hancock St",
      "description": "Ana Florencia on guitar and vocals and keys Jim Payne on caj\u00f3n Michael Drake on bass",
      "latlng": {
        "latitude": 42.447161449999996,
        "longitude": -76.50387013238527
      },
      "isFavorited": false
    },
    {
      "name": "Frits Marohn Sextet",
      "time": "5-6 pm",
      "address": "306 E Yates St",
      "description": "Jazz group comprised of college students. Standards and more.",
      "latlng": { "latitude": 42.44746935, "longitude": -76.49669455 },
      "isFavorited": false
    },
    {
      "name": "The Fuse",
      "time": "5-6 pm",
      "address": "209 Utica St",
      "description": "A roaring synth. Shredding guitars. A blonde screaming into the mic. Then ZAP! Silence. Our first open mic night ended abruptly and gave us our name\u2014we blew a fuse. Now we draw on that power, blending grunge, metal, and rock to (hopefully not) short out your neighbor\u2019s porch.",
      "latlng": { "latitude": 42.44669855, "longitude": -76.49801657633418 },
      "isFavorited": false
    },
    {
      "name": "Goats in the Woodshed",
      "time": "1-2 pm",
      "address": "407 Auburn St",
      "description": "The great Old Time Music you get when a group of Ithaca friends gather to share the tunes they enjoy. Mad Goat Stringband band members Peter, Marianne, Tom and Nancy join with Laura and Scott to give you the Goats in the Woodshed band. Stop on by!!",
      "latlng": { "latitude": 42.45112075, "longitude": -76.50069318960098 },
      "isFavorited": false
    },
    {
      "name": "Grace Dashnaw",
      "time": "1-2 pm",
      "address": "430 N Cayuga St",
      "description": "Cello w/ pickup and electronics",
      "latlng": { "latitude": 42.4444636, "longitude": -76.4994478 },
      "isFavorited": false
    },
    {
      "name": "Hay Day",
      "time": "3-4 pm",
      "address": "Thompson Park",
      "description": "Old time music featuring John Hoffmann, Michelle Delco, David Jones, Sally Freund and Randi Beckmann",
      "latlng": { "latitude": 42.44555135, "longitude": -76.49966156707706 },
      "isFavorited": false
    },
    {
      "name": "Hula Hut",
      "time": "4-5 pm",
      "address": "108 W Lewis St",
      "description": "Authentic hula dancing. Aloha!",
      "latlng": { "latitude": 42.4496147, "longitude": -76.5003434 },
      "isFavorited": false
    },
    {
      "name": "ICO Brass Quintet",
      "time": "3-4 pm",
      "address": "711 N Tioga St",
      "description": "The ICO Brass Quintet consists of brass players of the Ithaca Community Orchestra (http://ithacacommunityorchestra.org) who play a wide range of music: classical, marches, overtures, folk song suites, musical soundtracks, jazz and ragtime. Formed in 2009, the ICO Brass Quintet has played various concerts around town, including PorchFests 2012-19.",
      "latlng": { "latitude": 42.4479602, "longitude": -76.4970541 },
      "isFavorited": false
    },
    {
      "name": "The Immortal Peaches",
      "time": "4-5 pm",
      "address": "145 Linn St",
      "description": "And eclectic mix of rockachili, Psychobilly and jazz soup played on a homemade guitar made out of a candy dish and stepped in Bath tub whiskey and glitter",
      "latlng": { "latitude": 42.445092450000004, "longitude": -76.494459366455 },
      "isFavorited": false
    },
    {
      "name": "Insolent Cur",
      "time": "1-2 pm",
      "address": "706 N Tioga St",
      "description": "Acoustic duo playing originals and covers.",
      "latlng": { "latitude": 42.447612649999996, "longitude": -76.4974929 },
      "isFavorited": false
    },
    {
      "name": "Isaac Sharp \u2013 Guitarist",
      "time": "4-5 pm",
      "address": "408 Auburn St",
      "description": "Classical guitar? Song parodies?? Unsettling soundscapes??? Yes! Yes!! YES!!!",
      "latlng": { "latitude": 42.4512463, "longitude": -76.5011511 },
      "isFavorited": false
    },
    {
      "name": "Ithaca High School Chorale",
      "time": "12-1 pm",
      "address": "202 King St",
      "description": "The Ithaca High School Chorale is a non-auditioned ensemble of 10th, 11th and 12th grade singers. They are a diverse group of young people, expert goofballs, and thoughtful student musicians who love singing just about everything.",
      "latlng": { "latitude": 42.45078255, "longitude": -76.49560979918579 },
      "isFavorited": false
    },
    {
      "name": "Ithaca Ukes",
      "time": "2-3 pm",
      "address": "204 W Yates St",
      "description": "Group performance by the Ithaca Ukulele group",
      "latlng": { "latitude": 42.44721265, "longitude": -76.50098838119504 },
      "isFavorited": false
    },
    {
      "name": "Jake and the Nowhere",
      "time": "2-3 pm",
      "address": "602 W Marshall St",
      "description": "A performance by The Nocturnal Animal Band followed by punk band Jake and the Nowhere",
      "latlng": { "latitude": 42.4460774, "longitude": -76.4995234 },
      "isFavorited": false
    },
    {
      "name": "Jasperoo",
      "time": "12-1 pm",
      "address": "312 E Falls St",
      "description": "Jasperoo perform instrumental Americana music from old-time to modern originals. They play guitar (6 and 12 string) and banjo (4 and 5 string). If the tunes aren\u2019t familiar, they\u2019ll soon be old friends.",
      "latlng": { "latitude": 42.4530467, "longitude": -76.49573831662966 },
      "isFavorited": false
    },
    {
      "name": "JazzHappensBand",
      "time": "2-3 pm",
      "address": "100 Franklin St",
      "description": "7-piece traditional hot jazz band",
      "latlng": { "latitude": 42.45092185, "longitude": -76.5011307 },
      "isFavorited": false
    },
    {
      "name": "Jeremy & Beth",
      "time": "2-3 pm",
      "address": "515 N Aurora St",
      "description": "Bittersweet ballads and uplifting tunes. Jeremy & Beth have been singing on road trips and around campfires since 2012. Come and hear a few of our favorite cover songs.",
      "latlng": {
        "latitude": 42.445660000000004,
        "longitude": -76.49573705875329
      },
      "isFavorited": false
    },
    {
      "name": "Johnny Dowd",
      "time": "3-4 pm",
      "address": "118 E York St",
      "description": "Over the last thirty years, Johnny Dowd has been releasing records that defy trends, creating a unique catalog of work. Now in his seventieth year, Dowd has lost none of the attitude that has seen him forge his position as one of America\u2019s most inquisitive artistic minds.",
      "latlng": { "latitude": 42.4536111, "longitude": -76.4986735 },
      "isFavorited": false
    },
    {
      "name": "Katie Alessandra",
      "time": "4-5 pm",
      "address": "123 E Falls St",
      "description": "A one woman band with high energy bluegrass roots.",
      "latlng": { "latitude": 42.4526228, "longitude": -76.4981542 },
      "isFavorited": false
    },
    {
      "name": "Kitestring",
      "time": "1-2 pm",
      "address": "206 E Lewis St",
      "description": "Alternative roots rock with influences from Americana and blues featuring memorable original songs with excellent musicianship and fiery unforgettable vocals.",
      "latlng": { "latitude": 42.4497059, "longitude": -76.49799957197733 },
      "isFavorited": false
    },
    {
      "name": "Knockout Rats",
      "time": "4-5 pm",
      "address": "720 N Aurora St",
      "description": "Knockout Rats are a scrappy, 4 person garage band, primarily playing covers. A fully owned subsidiary of Tyrannical Vegetable, LLC.",
      "latlng": { "latitude": 42.4482826, "longitude": -76.4963421 },
      "isFavorited": false
    },
    {
      "name": "Lady Shen",
      "time": "4-5 pm",
      "address": "615 Willow Ave",
      "description": "Jamaican singer & songwriter known for delivering various musical styles.Most of her songs relates to her life experiences and serve as a source of healing and strength. She sings with power and vigor with the hope of helping others through her music. Instagram-ladyshengram, YouTube-Lady Shen, TikTok-Lady_shen, Lady Shen Music avaialable on all major platforms",
      "latlng": { "latitude": 42.4506549, "longitude": -76.5035092 },
      "isFavorited": false
    },
    {
      "name": "Leo & The Maydays",
      "time": "1-2 pm",
      "address": "818 N Aurora St",
      "description": "Alternative Indie Rock Infectious melodies and harmonies that draw the listener in and leave them wanting more. Leo can seamlessly bridge the gap between catchy indie rock and jazz inspired numbers.",
      "latlng": { "latitude": 42.449112, "longitude": -76.4964646 },
      "isFavorited": false
    },
    {
      "name": "Li\u2019l Anne and Hot Cayenne",
      "time": "3-4 pm",
      "address": "510 N Tioga St",
      "description": "Deep groove zydeco",
      "latlng": { "latitude": 42.4454994, "longitude": -76.4973769 },
      "isFavorited": false
    },
    {
      "name": "Luke G & the Candyhearts",
      "time": "3-4 pm",
      "address": "610 N Aurora St",
      "description": "Luke transports us to a decade that never was, with echoes of the 1950s era of rock \u2018n\u2019 roll and doo-wop, but a time & place like none before. Despite the name, there\u2019s no saccharine in the Candyhearts. Just unrefined sonic truth, barely hinged, desperate to make memories & make some people move.",
      "latlng": { "latitude": 42.4466579, "longitude": -76.4963332 },
      "isFavorited": false
    },
    {
      "name": "Magz1lla",
      "time": "4-5 pm",
      "address": "212 E Yates St",
      "description": "Magz1lla is an electro-pop act with synthy beats, silvery vocals, and introspective lyrics.",
      "latlng": { "latitude": 42.44734669387755, "longitude": -76.4980587755102 },
      "isFavorited": false
    },
    {
      "name": "Material Objects F&F",
      "time": "2-3 pm",
      "address": "611 N Tioga St",
      "description": "Indie and post-punk for porchgoers. Adapted lineup with friends and family.",
      "latlng": {
        "latitude": 42.446913699999996,
        "longitude": -76.49699426415816
      },
      "isFavorited": false
    },
    {
      "name": "Max Childs",
      "time": "5-6 pm",
      "address": "1111 N Aurora St",
      "description": "Singer/Songwriter performing a blend of Pop, Soul, and RnB",
      "latlng": { "latitude": 42.4526747, "longitude": -76.4964484 },
      "isFavorited": false
    },
    {
      "name": "Meadow",
      "time": "3-4 pm",
      "address": "1112 N Tioga St",
      "description": "Meadow is a producer and dj whose sound is inspired by house, techno and ambient music. their work is about finding and cultivating feeling, especially as a means of reacting to and articulating life with brain disorders.",
      "latlng": { "latitude": 42.4526152, "longitude": -76.4977419 },
      "isFavorited": false
    },
    {
      "name": "Metasequoia",
      "time": "3-4 pm",
      "address": "818 N Aurora St",
      "description": "Rock Reggae Fusion Organic grown grooves",
      "latlng": { "latitude": 42.449112, "longitude": -76.4964646 },
      "isFavorited": false
    },
    {
      "name": "Microbes, Mostly",
      "time": "2-3 pm",
      "address": "430 N Cayuga St",
      "description": "We are microbes (mostly). Fast paced garage rock inspired by scobies and compost piles everywhere. It\u2019s music you can move your feet to! Yeehaw!",
      "latlng": { "latitude": 42.4444636, "longitude": -76.4994478 },
      "isFavorited": false
    },
    {
      "name": "Mighty Jet",
      "time": "2-3 pm",
      "address": "406 E Yates St",
      "description": "The Mighty Jet is a blend of blues, folk, and rock. They play lyric-driven original songs, with guitars, banjo, keyboards, and drums creating a kind of swampy rumination. The band has been described as \u201cdeft and spontaneous,\u201d and stands accused of perpetrating their own brand of intelligent blues.",
      "latlng": { "latitude": 42.4475135, "longitude": -76.49545720067374 },
      "isFavorited": false
    },
    {
      "name": "Mobile Genetic Elephants",
      "time": "12-1 pm",
      "address": "515 N Aurora St",
      "description": "The transfer of musical ideas via mobile genetic elephants allows musicians to adapt rapidly to changing environmental pressures. Here we present a novel in vivo study observing original songwriters in their natural acoustic ecosystem.",
      "latlng": {
        "latitude": 42.445660000000004,
        "longitude": -76.49573705875329
      },
      "isFavorited": false
    },
    {
      "name": "Mushroom House",
      "time": "5-6 pm",
      "address": "145 Linn St",
      "description": "Introspective folk rock with harmonies, guitar, and foot-stompin\u2019 fun.",
      "latlng": { "latitude": 42.445092450000004, "longitude": -76.494459366455 },
      "isFavorited": false
    },
    {
      "name": "Nasturtium",
      "time": "1-2 pm",
      "address": "611 N Tioga St",
      "description": "Father / Son duo present instrumental rock.",
      "latlng": {
        "latitude": 42.446913699999996,
        "longitude": -76.49699426415816
      },
      "isFavorited": false
    },
    {
      "name": "Negative Stars",
      "time": "1-2 pm",
      "address": "118 Cascadilla Ave",
      "description": "Noir nouveau punk rock duo.",
      "latlng": { "latitude": 42.4442697, "longitude": -76.49778097577115 },
      "isFavorited": false
    },
    {
      "name": "NEO Project",
      "time": "3-4 pm",
      "address": "104 Adams St",
      "description": "NEO Project is a funked up jazzy soulful, high energy dance band rooted in funky R&B grooves, Afro Cuban/Caribbean rhythms & bluesy soul music. Its members have built a collective reputation as to always giving the listener a powerful dose of deep pocket grooves, soulful melodies & blazing improvisation.",
      "latlng": { "latitude": 42.4496013, "longitude": -76.5011609 },
      "isFavorited": false
    },
    {
      "name": "New Motor Club",
      "time": "1-2 pm",
      "address": "111 Auburn St",
      "description": "\u201cThe music, it\u2019s rock and roll. it\u2019s putting the hammer down and still having this sense of vulnerability. So familiar in the best way possible. The choruses, no way to say it but they are f***ing catchy. It\u2019s a big hook. It\u2019s got you. It\u2019s stuck there forever.\u201d -Jimmy Hollywood",
      "latlng": { "latitude": 42.4478294, "longitude": -76.50043965 },
      "isFavorited": false
    },
    {
      "name": "Noon Fifteen",
      "time": "4-5 pm",
      "address": "206 E Lewis St",
      "description": "Hailed as \u201ca small town band with a big imagination\u201d (Pete Mason, NYS Music), Ithaca, NY\u2019s genre-bending soul combo, Noon Fifteen, delivers fun, forward-thinking songs bathed in layered vocals and old school instrumentation.",
      "latlng": { "latitude": 42.4497059, "longitude": -76.49799957197733 },
      "isFavorited": false
    },
    {
      "name": "Northside Stringband",
      "time": "4-5 pm",
      "address": "613 N Tioga St",
      "description": "Old time string band from Ithaca\u2019s Northside neighborhood",
      "latlng": { "latitude": 42.447061399999996, "longitude": -76.4970015 },
      "isFavorited": false
    },
    {
      "name": "Not From Wisconsin",
      "time": "1-2 pm",
      "address": "206 E Jay St",
      "description": "Original songs that range from spare and meditative to hook-driven indie rock.",
      "latlng": { "latitude": 42.45084885, "longitude": -76.49796607598057 },
      "isFavorited": false
    },
    {
      "name": "Off the Rails",
      "time": "4-5 pm",
      "address": "710 N Tioga St",
      "description": "Off the Rails will be doing an acoustic set in keeping with the spirit of Porchfest, playing a mix of originals and covers.",
      "latlng": { "latitude": 42.4478197, "longitude": -76.49750625 },
      "isFavorited": false
    },
    {
      "name": "Old Scots",
      "time": "5-6 pm",
      "address": "113 E Falls St",
      "description": "Original music, an Eccelctic mix of progressive folk and rock with some jazz influence. John, Steve and Craig first played together in 1971 and \u2013 with a few interruptions \u2013 continue to create music to this day.",
      "latlng": { "latitude": 42.45257385, "longitude": -76.49877785200503 },
      "isFavorited": false
    },
    {
      "name": "One Heart Community Drumming",
      "time": "5-6 pm",
      "address": "Thompson Park",
      "description": "Ithaca\u2019s community drum circle since 1996",
      "latlng": { "latitude": 42.44555135, "longitude": -76.49966156707706 },
      "isFavorited": false
    },
    {
      "name": "Opus Ithaca Jazz",
      "time": "5-6 pm",
      "address": "402 N Aurora St",
      "description": "Students from Opus Ithaca School of Music summer program perform jazz standards.",
      "latlng": { "latitude": 42.4429838, "longitude": -76.4961916 },
      "isFavorited": false
    },
    {
      "name": "The Original Cornell Syncopators",
      "time": "5-6 pm",
      "address": "1019 N Cayuga St",
      "description": "Founded in 2016 by Colin Hancock, the Original Cornell Syncopators is a Cornell student-run jazz band specializing in sweet and hot music from the late 1910s to the early 1930s. It is now led by Zeke Lawrence and features danceable tunes for the whole family.",
      "latlng": { "latitude": 42.45174035, "longitude": -76.49930869021821 },
      "isFavorited": false
    },
    {
      "name": "Pamela Goddard/HarpSong",
      "time": "12-1 pm",
      "address": "705 N Tioga St",
      "description": "Solo soothing harp and gentle folk songs \u2013 pull up a chair and relax. Totally acoustic, very intimate.",
      "latlng": { "latitude": 42.4476192, "longitude": -76.49699769832283 },
      "isFavorited": false
    },
    {
      "name": "Papa Muse (solo)",
      "time": "4-5 pm",
      "address": "507 N Aurora St",
      "description": "Described as \u201cIndie World,\u201d Papa Muse blends rock and world music with catchy hooks and funky dance-able grooves.",
      "latlng": { "latitude": 42.4453081, "longitude": -76.4957279 },
      "isFavorited": false
    },
    {
      "name": "Pelotones",
      "time": "2-3 pm",
      "address": "411 Willow Ave",
      "description": "The Pelotones play a variety of Swing jazz, R and B, Blues and originals. Good for dancing.",
      "latlng": { "latitude": 42.4486309, "longitude": -76.50207140163809 },
      "isFavorited": false
    },
    {
      "name": "Penelope-Myles Voss",
      "time": "3-4 pm",
      "address": "313 E Falls St",
      "description": "Penelope-Myles Voss is a vocalist and songwriter who studied music at Ithaca College. She bought her first ukulele at Hickey\u2019s in Ithaca a year after graduation, and hasn\u2019t stopped playing it since. Her songs are bittersweet and speak to themes of loss, hope and the search for identity.",
      "latlng": { "latitude": 42.45269185, "longitude": -76.49574825178681 },
      "isFavorited": false
    },
    {
      "name": "Pete\u2019s Pop-Up Porch Pickers and Square Dance!",
      "time": "5-6 pm",
      "address": "613 N Tioga St",
      "description": "Fiddle tunes on the porch, square dancing in the Street. Gonna be a big time \u2014 y\u2019all come.",
      "latlng": { "latitude": 42.447061399999996, "longitude": -76.4970015 },
      "isFavorited": false
    },
    {
      "name": "The Philip Glass Cover Band",
      "time": "4-5 pm",
      "address": "104 Lake Ave",
      "description": "A collective of wind/string/percussion musicians playing arrangements of Philip Glass pieces.",
      "latlng": { "latitude": 42.4446869, "longitude": -76.4996759 },
      "isFavorited": false
    },
    {
      "name": "Pine box",
      "time": "5-6 pm",
      "address": "712 N Tioga st",
      "description": "string band music",
      "latlng": { "latitude": 42.44794285, "longitude": -76.49749282495739 },
      "isFavorited": false
    },
    {
      "name": "Plaster Men",
      "time": "3-4 pm",
      "address": "118 Cascadilla Ave",
      "description": "Your new favorite Ithaca\u2019s power pop super group playing tunes that sound familiar but you actually never heard them before.",
      "latlng": { "latitude": 42.4442697, "longitude": -76.49778097577115 },
      "isFavorited": false
    },
    {
      "name": "Prof. Tues. Jazz Quartet",
      "time": "1-2 pm",
      "address": "1112 N Tioga St",
      "description": "Mainstream jazz quartet featuring Peter Forlano on sax, Jerry Hilliker on guitar, John Sanderson on drums, and Rob Sarachan on bass.",
      "latlng": { "latitude": 42.4526152, "longitude": -76.4977419 },
      "isFavorited": false
    },
    {
      "name": "Proper Philth",
      "time": "3-4 pm",
      "address": "213 Willow Ave",
      "description": "Funk/Disco/House (DJ set)",
      "latlng": { "latitude": 42.4467968, "longitude": -76.50060042269573 },
      "isFavorited": false
    },
    {
      "name": "Prow",
      "time": "2-3 pm",
      "address": "308 Utica St",
      "description": "Four musicians from varying backgrounds that love crafting good music. We strive to create stories with strong imagery, inspired by 80\u2019s pop and 90\u2019s/2000\u2019s style rock and alternative music.",
      "latlng": { "latitude": 42.44772425, "longitude": -76.498568 },
      "isFavorited": false
    },
    {
      "name": "Quaker Midnight",
      "time": "12-1 pm",
      "address": "812 N Tioga St",
      "description": "\u201cQuaker Midnight\u201d is a husband and wife duo from the Philadelphia area performing their original acoustic arrangements of folk, rock, blues, pop, and jazz songs. George Schaefer (he/him) guitar/vocals, and Georgette Hamaty (she/her) vocals have been performing together for 13 years. They love Ithaca, frequently visiting their daughter at Cornell.",
      "latlng": { "latitude": 42.44922455, "longitude": -76.49761668631304 },
      "isFavorited": false
    },
    {
      "name": "Richie and Rosie",
      "time": "12-1 pm",
      "address": "Thompson Park",
      "description": "Fiddle and banjo old time Appalachian americana",
      "latlng": { "latitude": 42.44555135, "longitude": -76.49966156707706 },
      "isFavorited": false
    },
    {
      "name": "Richie Holtz and Friends",
      "time": "12-1 pm",
      "address": "307 Auburn St",
      "description": "We\u2019ll be playing acoustically. Songs you know and songs you may not know. Feel free to sing along.",
      "latlng": {
        "latitude": 42.449911900000004,
        "longitude": -76.50062349752372
      },
      "isFavorited": false
    },
    {
      "name": "Rose Fritzky-Randolph",
      "time": "2-3 pm",
      "address": "507 N Tioga St",
      "description": "Rose Fritzky-Randolph is overjoyed to be singing from her favorite Ithaca porch once again! A singer-songwriter influenced by folk rock artists like Joni Mitchell and Brandi Carlile, Rose has been in the Ithaca music scene for the last decade. Supported by some of her long time musical soul mates, she\u2019ll be performing a set of her original songs as well as a couple favorite covers. Happy Porchfest!",
      "latlng": { "latitude": 42.44547105, "longitude": -76.49686319163519 },
      "isFavorited": false
    },
    {
      "name": "The Rudiments",
      "time": "5-6 pm",
      "address": "449 N Aurora St",
      "description": "A bunch of amateur, rudimentary musicians that enjoy making music together. We cover songs from the likes of Tom Petty to Shovels and Rope to the Avett Brothers. Come join us for an hour to celebrate the return of Porchfest!!!!",
      "latlng": {
        "latitude": 42.444905399999996,
        "longitude": -76.49563813414753
      },
      "isFavorited": false
    },
    {
      "name": "Sam Money",
      "time": "2-3 pm",
      "address": "123 E Falls St",
      "description": "Solo acoustic loop pedal originals and covers ranging from classic rock to funk to bluegrass",
      "latlng": { "latitude": 42.4526228, "longitude": -76.4981542 },
      "isFavorited": false
    },
    {
      "name": "Sandbox",
      "time": "1-2 pm",
      "address": "317 Auburn St",
      "description": "Mix of eclectic rock and originals.",
      "latlng": { "latitude": 42.4502297, "longitude": -76.50059269580129 },
      "isFavorited": false
    },
    {
      "name": "Scratched Vinyl",
      "time": "5-6 pm",
      "address": "1204 N Tioga St",
      "description": "Rock-n-Roll originals and covers",
      "latlng": { "latitude": 42.4531048, "longitude": -76.49808975145422 },
      "isFavorited": false
    },
    {
      "name": "Sears St. Ally Cats",
      "time": "12-1 pm",
      "address": "112 Sears St",
      "description": "Magnus and Suzanne Schwartz met while working at Cornell Libraries. They perform various cover tunes. Pete Magnus Vocals Uke Guitar Suzanne Schwartz Bassettino Uke Mandolin",
      "latlng": {
        "latitude": 42.443311550000004,
        "longitude": -76.4982506722224
      },
      "isFavorited": false
    },
    {
      "name": "Second Spring",
      "time": "2-3 pm",
      "address": "432 N Tioga St",
      "description": "Local rock group with heavy influences from classic rock, formed in 2019. Setlist includes both original music and covers. https://www.instagram.com/secondspringithaca/?hl=en",
      "latlng": { "latitude": 42.4442703, "longitude": -76.4973357 },
      "isFavorited": false
    },
    {
      "name": "Seneca St. Recorder Ensemble",
      "time": "12-1 pm",
      "address": "313 Utica St",
      "description": "Lively, lovely, fun music for recorder ensemble. Appealing selections from folk traditions and Renaissance to contemporary composers.",
      "latlng": { "latitude": 42.4479549, "longitude": -76.4981434012912 },
      "isFavorited": false
    },
    {
      "name": "Shinichi and the ITEs",
      "time": "2-3 pm",
      "address": "520 N Tioga St",
      "description": "Fiddle, folk and fun tunes by violin and viola players ages 4-17.",
      "latlng": { "latitude": 42.44600635, "longitude": -76.49737345 },
      "isFavorited": false
    },
    {
      "name": "Silas Brainard and the Ants on Stilts",
      "time": "2-3 pm",
      "address": "310 Farm St",
      "description": "Silas Brainard and the Ants on Stilts is an Ithacan folk-rock group. Their debut album, \u201cTrip to Newfield\u201d, is a collection of originals released in March, with songs rich in vocal harmony, about coming of age, existential confusion, moving, pain, loss and acceptance. A second album coming soon.",
      "latlng": { "latitude": 42.4452208, "longitude": -76.4952222 },
      "isFavorited": false
    },
    {
      "name": "Singing Heart Kirtan",
      "time": "1-2 pm",
      "address": "Thompson Park",
      "description": "Kirtan is a joyful practice of call-and-response singing from the yoga tradition. We chant mantras and prayers that open the heart and lift the spirit. Led by Jyoti (Jody Kessler)and friends. (with Sparky the Unicorn)",
      "latlng": { "latitude": 42.44555135, "longitude": -76.49966156707706 },
      "isFavorited": false
    },
    {
      "name": "Singing Notes And Slinging Jokes",
      "time": "2-3 pm",
      "address": "712 N Tioga St",
      "description": "It is Singing Notes and Slinging Jokes when SingTrece, and comedian, Kenneth McLaurin share a stage together. International performing and recording artist, \u201cSingTrece\u201d and husband Kenneth McLaurin are excited to bring you a great evening of entertainment. Partners in life, and creativity they merge, music, song, storytelling, and comedy, into an intimate experience which is an invitation as the couple, takes you on a journey of songs and stories about life, love, and laughter.",
      "latlng": { "latitude": 42.44794285, "longitude": -76.49749282495739 },
      "isFavorited": false
    },
    {
      "name": "SingTrece",
      "time": "5-6 pm",
      "address": "801 N Tioga St",
      "description": "Live performer, soul singer. Changing hearts one positive note at a time",
      "latlng": {
        "latitude": 42.44858790000001,
        "longitude": -76.49709707533555
      },
      "isFavorited": false
    },
    {
      "name": "Sonic Rust",
      "time": "2-3 pm",
      "address": "408 E Marshall St",
      "description": "Neil Young and Crazy Horse covers from the early 70\u2019s to now. Danceable and memorable.",
      "latlng": { "latitude": 42.4463527, "longitude": -76.4953099 },
      "isFavorited": false
    },
    {
      "name": "The Soul Benders",
      "time": "4-5 pm",
      "address": "403 N Tioga St",
      "description": "The Soul Benders defy the norm and deliver a powerhouse celebration of originals filled with blues and rock as well as many soul-filled covers. Emerging from their originals, you\u2019ll find songs of universal resonance that get your feet tapping, your mind humming and your heart pumping.",
      "latlng": { "latitude": 42.4428666, "longitude": -76.4967978 },
      "isFavorited": false
    },
    {
      "name": "Stone\u2019s Throw Creek",
      "time": "3-4 pm",
      "address": "306 E Yates St",
      "description": "Porchfest favorites since 2008, Stone\u2019s Throw Creek will entertain you with original compositions and standards borrowed from bluegrass, country, and the Grateful Dead \u2014 all done in bluegrass style with tight vocal harmonies!",
      "latlng": { "latitude": 42.44746935, "longitude": -76.49669455 },
      "isFavorited": false
    },
    {
      "name": "Story Porch for Grown-Ups",
      "time": "1-2 pm",
      "address": "711 N Tioga St",
      "description": "Pithy tales from an all-star lineup of local storytellers",
      "latlng": { "latitude": 42.4479602, "longitude": -76.4970541 },
      "isFavorited": false
    },
    {
      "name": "Story Porch for Kids",
      "time": "12-1 pm",
      "address": "711 N Tioga St",
      "description": "Tales for young folk by local tellers",
      "latlng": { "latitude": 42.4479602, "longitude": -76.4970541 },
      "isFavorited": false
    },
    {
      "name": "Stranded With a Kiss",
      "time": "5-6 pm",
      "address": "711 N Aurora St",
      "description": "3 piece original rock",
      "latlng": { "latitude": 42.44787615, "longitude": -76.49582687490778 },
      "isFavorited": false
    },
    {
      "name": "Strong Maybe",
      "time": "3-4 pm",
      "address": "608 Utica St",
      "description": "Strong Maybe is a band from Ithaca, NY. Mostly improvised psychotic cartoon animal music.",
      "latlng": { "latitude": 42.4511809, "longitude": -76.49878999725249 },
      "isFavorited": false
    },
    {
      "name": "Sue and Alejandro",
      "time": "2-3 pm",
      "address": "116 Farm St",
      "description": "Sue Smith and Alejandro Papachryssanthou bring you something pretty unique: our favorite jazz tunes played adventurously and soulfully on chromatic harmonica and keyboard. Latin, Brazilian, standards\u2026Both long time local music teachers and performers with eclectic backgrounds. Come listen!",
      "latlng": { "latitude": 42.445125, "longitude": -76.4983813 },
      "isFavorited": false
    },
    {
      "name": "the sunny weather",
      "time": "3-4 pm",
      "address": "507 N Aurora St",
      "description": "Songwriter, Trevor MacDonald, is an acoustic Americana, indie pop, artist who performs as the sunny weather. Trevor is a self taught musician who began making music at the age of 15 while living in California. A year later he returned to Ithaca, New York and released a debut cassette. This led to years working with roots rock band Donna the Buffalo and the GrassRoots Festival scene.",
      "latlng": { "latitude": 42.4453081, "longitude": -76.4957279 },
      "isFavorited": false
    },
    {
      "name": "Taksim",
      "time": "1-2 pm",
      "address": "312 Farm St",
      "description": "We are a Middle Eastern music and Belly Dance band in Ithaca, New York. We have collaborated with musicians and dancers from Egypt, Iran, Syria, Lebanon, Iraq, Tunisia, Greece, Turkey, and Armenia. We perform music loved by people from the Middle E and Mediterranean and the Balkans. Youtube: https://www.youtube.com/channel/UCMcWjt3NbAl5olVyD9Mbl5A",
      "latlng": { "latitude": 42.4452229, "longitude": -76.4950132 },
      "isFavorited": false
    },
    {
      "name": "Tenzin Chopak",
      "time": "5-6 pm",
      "address": "513 Willow Ave",
      "description": "Tenzin Chopak is a singer songwriter and artist based in Ithaca. He\u2019ll be performing with Emmett Scott on keys and Cooper Casterline on percussion.",
      "latlng": { "latitude": 42.44956125, "longitude": -76.50282013616376 },
      "isFavorited": false
    },
    {
      "name": "There\u2019s Always Room for Cello!",
      "time": "1-2 pm",
      "address": "520 N Tioga St",
      "description": "Delightfully mellow and lively cello tunes by players ages 4-17.",
      "latlng": { "latitude": 42.44600635, "longitude": -76.49737345 },
      "isFavorited": false
    },
    {
      "name": "Timothy Weber Gets Help",
      "time": "4-5 pm",
      "address": "701 N Aurora St",
      "description": "Solo singer-songwriter playing duets for once \u2013 favorite covers and most-requested originals for bouncy fun and heartfelt vibes. Guitars plus.",
      "latlng": { "latitude": 42.4474653, "longitude": -76.4958516 },
      "isFavorited": false
    },
    {
      "name": "Toivo",
      "time": "4-5 pm",
      "address": "Thompson Park",
      "description": "Toivo plays an eclectic mix of danceable music from accordion driven Tex-Mex polkas to waltzes, tangos, and honky-tonk country. Richard Koski, accordion; Jason Koski, mandolin; Jim Reidy, guitar; Stefan Senders, banjo; Harley Campbell, upright bass; Annie Campbell, snare drum.",
      "latlng": { "latitude": 42.44555135, "longitude": -76.49966156707706 },
      "isFavorited": false
    },
    {
      "name": "Tom Mank and Sera Smolen",
      "time": "1-2 pm",
      "address": "313 Utica St",
      "description": "Original modern folk and blues with improvised cello. Tom Mank \u2013 acoustic guitar, vocal Sera Smolen \u2013 cello Rick DePaolo \u2013 acoustic guitar Kirsti Gholson \u2013 vocal https://tommank.net/",
      "latlng": { "latitude": 42.4479549, "longitude": -76.4981434012912 },
      "isFavorited": false
    },
    {
      "name": "Tom Shevory and Chris Bell",
      "time": "3-4 pm",
      "address": "1204 N Tioga St",
      "description": "Piano driven rock-n-roll originals. Inspired by the upright\u2019s pedigree, but smitten by the digital\u2019s versatility.",
      "latlng": { "latitude": 42.4531048, "longitude": -76.49808975145422 },
      "isFavorited": false
    },
    {
      "name": "Travis Knapp & Friends",
      "time": "4-5 pm",
      "address": "812 N Tioga St",
      "description": "Banjo-based original folk music, with lots of soulful singalongs & 3-part harmonies @travisknappmusic",
      "latlng": { "latitude": 42.44922455, "longitude": -76.49761668631304 },
      "isFavorited": false
    },
    {
      "name": "Trillium Recorder Trio",
      "time": "4-5 pm",
      "address": "202 W Yates St",
      "description": "This year we\u2019re playing International Music from around the world, ending with American spirituals, blues and \u201cThe Sycamore Suite\u201d by Scott Joplin.",
      "latlng": { "latitude": 42.44725225, "longitude": -76.50086968411425 },
      "isFavorited": false
    },
    {
      "name": "Truth Decay",
      "time": "2-3 pm",
      "address": "1111 N Aurora St",
      "description": "Rock originals from the minds of adults struggling to act their age.",
      "latlng": { "latitude": 42.4526747, "longitude": -76.4964484 },
      "isFavorited": false
    },
    {
      "name": "VESTMENTS",
      "time": "3-4 pm",
      "address": "430 N Cayuga St",
      "description": "VESTMENTS is athena rajnai and wallace petruziello. we write songs together in Ithaca, NY, & our friends help us play them live. hopefully you find something within our music that you can wear around yourself. instagram/twitter: @vestmentsband",
      "latlng": { "latitude": 42.4444636, "longitude": -76.4994478 },
      "isFavorited": false
    },
    {
      "name": "VINYL DJ Collective",
      "time": "3-4 pm",
      "address": "1108 N Aurora St",
      "description": "Few mates casually spinning eclectic vinyl selections.",
      "latlng": { "latitude": 42.4525429, "longitude": -76.4968276 },
      "isFavorited": false
    },
    {
      "name": "\u00a1Viva Mayhem!",
      "time": "2-3 pm",
      "address": "104 Adams St",
      "description": " ",
      "latlng": { "latitude": 42.4496013, "longitude": -76.5011609 },
      "isFavorited": false
    },
    {
      "name": "Vivace Vocal Quartet",
      "time": "12-1 pm",
      "address": "407 Auburn St",
      "description": "Vivace is an acapella vocal quartet singing songs ranging from swing to country. The fun is baked into the close harmony and toe tapping rhythm!",
      "latlng": { "latitude": 42.45112075, "longitude": -76.50069318960098 },
      "isFavorited": false
    },
    {
      "name": "Wallnut",
      "time": "1-2 pm",
      "address": "210 Utica St",
      "description": "Eclectic mix of Rock and Roll covers.",
      "latlng": { "latitude": 42.4466946, "longitude": -76.4985331 },
      "isFavorited": false
    },
    {
      "name": "Wayne Gottlieb solo",
      "time": "4-5 pm",
      "address": "401 Utica St",
      "description": "Wayne (of the Pelotones) will play some of his original songs and chord solos. He will have a looper, though he may decide not to use it.",
      "latlng": { "latitude": 42.4485332, "longitude": -76.4982305 },
      "isFavorited": false
    },
    {
      "name": "Will Fuedman",
      "time": "4-5 pm",
      "address": "Thompson Park",
      "description": "Will Fudeman playing mostly originals, with heart, humor, mandola and guitar, and whatever friends are free to stop by and join for a few tunes.",
      "latlng": { "latitude": 42.44555135, "longitude": -76.49966156707706 },
      "isFavorited": false
    }
  ]
  